{"requestTime" : {"$date":"2016-10-31T12:12:37.321Z"},"location" : {"coordinates" : [77.612257,12.934729],"address" : "The Forum, Bengaluru South, Karnataka, India"},"customerId" : "customer1","status" : "delivered","restaurantId" : "06"}
{"requestTime" : {"$date":"2016-10-30T11:12:37.321Z"},"location" : {"coordinates" : [77.63873160000003,12.9609857],"address" : "Domlur, Bengaluru, Karnataka, India"},"customerId" : "customer2","status" : "delivered","restaurantId" : "02"}
{"requestTime" : {"$date":"2016-10-29T10:12:37.321Z"},"location" : {"coordinates" : [77.6405906,12.9792338],"address" : "Indiranagar, Bengaluru, Karnataka, India"},"customerId" : "customer3","status" : "delivered","restaurantId" : "06"}
{"requestTime" : {"$date":"2016-10-28T01:12:37.321Z"},"location" : {"coordinates" : [77.63571390000004,13.0221617],"address" : "Kalyan Nagar, Bengaluru, Karnataka, India"},"customerId" : "customer4","status" : "delivered","restaurantId" : "01"}
{"requestTime" : {"$date":"2016-10-27T02:12:37.321Z"},"location" : {"coordinates" : [77.64115449999997,12.9718915],"address" : "Indiranagar, Bengaluru, Karnataka, India"},"customerId" : "customer4","status" : "waiting"}
{"requestTime" : {"$date":"2016-10-26T03:12:37.321Z"},"location" : {"coordinates" : [77.63940720000005,13.0251532],"address" : "Kalyan Nagar, Bengaluru, Karnataka, India"},"customerId" : "customer5","status" : "waiting"}
{"requestTime" : {"$date":"2016-10-25T04:12:37.321Z"},"location" : {"coordinates" : [77.62855850000005,12.9817147],"address" : "Murphy Town, Bengaluru, Karnataka, India"},"customerId" : "customer6","status" : "delivered","restaurantId" : "03"}
{"requestTime" : {"$date":"2016-10-24T05:12:37.321Z"},"location" : {"coordinates" : [77.63604780000003,12.9748831],"address" : "Indiranagar, Bengaluru, Karnataka, India"},"customerId" : "customer7","status" : "delivered","restaurantId" : "05"}
{"requestTime" : {"$date":"2016-10-23T06:12:37.321Z"},"location" : {"coordinates" : [77.63875669999993,12.9782859],"address" : "Indiranagar, Bengaluru, Karnataka, India"},"customerId" : "customer8","status" : "waiting"}
{"requestTime" : {"$date":"2016-10-22T07:12:37.321Z"},"location" : {"coordinates" : [77.62340530000006,12.9954659],"address" : "Bengaluru, Karnataka, India"},"customerId" : "customer9","status" : "delivered","restaurantId" : "04"}
{"requestTime" : {"$date":"2016-10-21T07:12:37.321Z"},"location" : {"address" : "Vijayanagar, Bengaluru, Karnataka, India","coordinates" : [77.5375756435096,12.9713392489537]},"customerId" : "customer10","status" : "waiting"}
{"requestTime" : {"$date":"2016-10-20T07:12:37.321Z"},"location" : {"type" : "point","coordinates" : [77.602921,12.983828],"address" : "Shivaji Nagar, Bengaluru, Karnataka, India"},"customerId" : "customer11","status" : "delivered","restaurantId" : "07"}
{"requestTime" : {"$date":"2016-10-19T07:12:37.321Z"},"location" : {"coordinates" : [77.590873,12.951075],"address" : "Cubbon Park, Bengaluru, Karnataka, India"},"customerId" : "customer12","status" : "waiting"}
{"requestTime" : {"$date":"2016-10-18T07:12:37.321Z"},"location" : {"coordinates" : [77.664543,12.861381],"address" : "PESIT South Campus, Bengaluru South, Karnataka, India"},"customerId" : "customer13","status" : "delivered","restaurantId" : ""}
{"requestTime" : {"$date":"2016-10-17T07:12:37.321Z"},"location" : {"coordinates" : [77.5862488523126,13.0425476160557],"address" : "Hebbal, Bengaluru, Karnataka, India"},"customerId" : "customer14","status" : "waiting"}
{"requestTime" : {"$date":"2016-10-16T07:12:37.321Z"},"location" : {"coordinates" : [77.594111,12.971567],"address" : "ITPL Whitefield, Bengaluru, Karnataka, India"},"customerId" : "customer15","status" : "delivered","restaurantId" : ""}
{"requestTime" : {"$date":"2016-10-15T07:12:37.321Z"},"location" : {"coordinates" : [77.58984,12.91302],"address" : "J.P. Nagar, Bengaluru South, Karnataka, India"},"customerId" : "customer16","status" : "waiting"}
{"requestTime" : {"$date":"2016-10-14T07:12:37.321Z"},"location" : {"coordinates" : [77.609835,12.974757],"address" : "M G Road, Bengaluru, Karnataka, India"},"customerId" : "customer17","status" : "delivered","restaurantId" : ""}
{"requestTime" : {"$date":"2016-10-14T07:12:37.321Z"},"location" : {"coordinates" : [77.7614443749189,12.9960258565798],"address" : "Whitefield, Bengaluru South, Karnataka, India"},"customerId" : "customer18","status" : "waiting"}
{"requestTime" : {"$date":"2016-10-13T07:12:37.321Z"},"location" : {"coordinates" : [77.497023,12.923295],"address" : "Bengaluru South, Karnataka, India"},"customerId" : "customer19","status" : "delivered","restaurantId" : ""}